[
  {
    "name": "ssdairy",
    "address": "348 E Monte Vista Rd, Ceres, CA 95307",
    "latitude": 37.59,
    "longitude": -120.95,
    "start": "2023-03-30",
    "db": "ssdairy",
    "running": "bop_plc_bge_skid_running"
  },
  {
    "name": "ackerman",
    "address": "6934 Central Ave, Ceres, CA 95307",
    "latitude": 37.57,
    "longitude": -120.95,
    "start": "2023-09-24",
    "db": "ackerman",
    "running": "bop_plc_inletvalve_open"
  },
  {
    "name": "doubled",
    "address": "7612 Central Ave, Ceres, CA 95307",
    "latitude": 37.57,
    "longitude": -120.95,
    "start": "2023-12-15",
    "db": "doubled",
    "running": "bop_plc_inletvalve_open"
  },
  {
    "name": "krblount",
    "address": "724 Ruble Rd, Crows Landing, CA 95313",
    "latitude": 37.40,
    "longitude": -121.07,
    "start": "2023-09-11",
    "db": "krblount",
    "running": "bop_plc_bge_skid_running"
  },
  {
    "name": "acmachado",
    "address": "825 Ruble Rd, Crows Landing, CA 95313",
    "latitude": 37.41,
    "longitude": -121.06,
    "start": "2023-09-10",
    "db": "acmachado",
    "running": "bop_plc_bge_skid_running"
  },
  {
    "name": "albertmendes",
    "address": "1100 Ruble Rd, Crows Landing, CA 95313",
    "latitude": 37.49,
    "longitude": -121.02,
    "start": "2023-09-10",
    "db": "albertmendes",
    "running": "bop_plc_bge_skid_running"
  },
  {
    "name": "trinkler",
    "address": "7449 Crows Landing Rd, Ceres, CA 95307",
    "latitude": 37.58,
    "longitude": -120.94,
    "start": "2023-09-11",
    "db": "trinkler",
    "running": "bop_plc_bge_skid_running"
  },
  {
    "name": "wirkstrom",
    "address": "5638 Columbus Ave, Hilmar, CA 95324",
    "latitude": 37.40,
    "longitude": -120.85,
    "start": "2024-06-14",
    "db": "wirkstrom",
    "running": "bop_plc_bge_skid_running"
  },
  {
    "name": "alamo",
    "address": "1500 W Fulkerth Rd, Crows Landing, CA 95313",
    "latitude": 37.39,
    "longitude": -121.08,
    "start": "2024-07-02",
    "db": "alamo",
    "running": "bop_plc_bge_skid_running"
  },
  {
    "name": "petersen",
    "address": "1431 N Central Ave, Turlock, CA 95380",
    "latitude": 37.5,
    "longitude": -120.85,
    "start": "2025-01-31",
    "db": "petersen",
    "running": "bop_plc_bge_skid_running"
  },
  {
    "name": "hilmar",
    "address": "21859 Crane Ave, Hilmar, CA 95324",
    "latitude": 37.40,
    "longitude": -120.87,
    "start": "2025-01-31",
    "db": "hilmar",
    "running": "bop_plc_bge_skid_running"
  }
]